$GPGGA,135454.873,5128.341,N,00536.834,E,1,12,1.0,0.0,M,0.0,M,,*67
$GPGSA,A,3,01,02,03,04,05,06,07,08,09,10,11,12,1.0,1.0,1.0*30
$GPRMC,135454.873,A,5128.341,N,00536.834,E,022.0,263.5,090719,000.0,W*77
$GPGGA,135455.873,5128.339,N,00536.825,E,1,12,1.0,0.0,M,0.0,M,,*69
$GPGSA,A,3,01,02,03,04,05,06,07,08,09,10,11,12,1.0,1.0,1.0*30
$GPRMC,135455.873,A,5128.339,N,00536.825,E,028.6,261.7,090719,000.0,W*75
$GPGGA,135456.873,5128.338,N,00536.812,E,1,12,1.0,0.0,M,0.0,M,,*6F
$GPGSA,A,3,01,02,03,04,05,06,07,08,09,10,11,12,1.0,1.0,1.0*30
$GPRMC,135456.873,A,5128.338,N,00536.812,E,028.4,262.6,090719,000.0,W*73
$GPGGA,135457.873,5128.336,N,00536.800,E,1,12,1.0,0.0,M,0.0,M,,*63
$GPGSA,A,3,01,02,03,04,05,06,07,08,09,10,11,12,1.0,1.0,1.0*30
$GPRMC,135457.873,A,5128.336,N,00536.800,E,030.9,262.8,090719,000.0,W*75
$GPGGA,135458.873,5128.334,N,00536.786,E,1,12,1.0,0.0,M,0.0,M,,*6F
$GPGSA,A,3,01,02,03,04,05,06,07,08,09,10,11,12,1.0,1.0,1.0*30
$GPRMC,135458.873,A,5128.334,N,00536.786,E,034.4,262.3,090719,000.0,W*7B
$GPGGA,135459.873,5128.332,N,00536.771,E,1,12,1.0,0.0,M,0.0,M,,*60
$GPGSA,A,3,01,02,03,04,05,06,07,08,09,10,11,12,1.0,1.0,1.0*30
$GPRMC,135459.873,A,5128.332,N,00536.771,E,025.3,263.8,090719,000.0,W*79
$GPGGA,135500.873,5128.331,N,00536.760,E,1,12,1.0,0.0,M,0.0,M,,*6E
$GPGSA,A,3,01,02,03,04,05,06,07,08,09,10,11,12,1.0,1.0,1.0*30
$GPRMC,135500.873,A,5128.331,N,00536.760,E,024.8,262.0,090719,000.0,W*74
$GPGGA,135501.873,5128.330,N,00536.750,E,1,12,1.0,0.0,M,0.0,M,,*6D
$GPGSA,A,3,01,02,03,04,05,06,07,08,09,10,11,12,1.0,1.0,1.0*30
$GPRMC,135501.873,A,5128.330,N,00536.750,E,066.4,262.7,090719,000.0,W*7A
$GPGGA,135502.873,5128.326,N,00536.721,E,1,12,1.0,0.0,M,0.0,M,,*6F
$GPGSA,A,3,01,02,03,04,05,06,07,08,09,10,11,12,1.0,1.0,1.0*30
$GPRMC,135502.873,A,5128.326,N,00536.721,E,022.3,261.1,090719,000.0,W*7A
$GPGGA,135503.873,5128.324,N,00536.711,E,1,12,1.0,0.0,M,0.0,M,,*6F
$GPGSA,A,3,01,02,03,04,05,06,07,08,09,10,11,12,1.0,1.0,1.0*30
$GPRMC,135503.873,A,5128.324,N,00536.711,E,024.3,260.7,090719,000.0,W*7B
$GPGGA,135504.873,5128.323,N,00536.700,E,1,12,1.0,0.0,M,0.0,M,,*6F
$GPGSA,A,3,01,02,03,04,05,06,07,08,09,10,11,12,1.0,1.0,1.0*30
$GPRMC,135504.873,A,5128.323,N,00536.700,E,038.2,261.7,090719,000.0,W*76
$GPGGA,135505.873,5128.320,N,00536.684,E,1,12,1.0,0.0,M,0.0,M,,*60
$GPGSA,A,3,01,02,03,04,05,06,07,08,09,10,11,12,1.0,1.0,1.0*30
$GPRMC,135505.873,A,5128.320,N,00536.684,E,036.4,261.3,090719,000.0,W*75
$GPGGA,135506.873,5128.318,N,00536.668,E,1,12,1.0,0.0,M,0.0,M,,*6A
$GPGSA,A,3,01,02,03,04,05,06,07,08,09,10,11,12,1.0,1.0,1.0*30
$GPRMC,135506.873,A,5128.318,N,00536.668,E,061.7,261.4,090719,000.0,W*79
$GPGGA,135507.873,5128.314,N,00536.641,E,1,12,1.0,0.0,M,0.0,M,,*6C
$GPGSA,A,3,01,02,03,04,05,06,07,08,09,10,11,12,1.0,1.0,1.0*30
$GPRMC,135507.873,A,5128.314,N,00536.641,E,034.1,261.9,090719,000.0,W*74
$GPGGA,135508.873,5128.312,N,00536.627,E,1,12,1.0,0.0,M,0.0,M,,*65
$GPGSA,A,3,01,02,03,04,05,06,07,08,09,10,11,12,1.0,1.0,1.0*30
$GPRMC,135508.873,A,5128.312,N,00536.627,E,047.9,260.3,090719,000.0,W*7A
$GPGGA,135509.873,5128.308,N,00536.606,E,1,12,1.0,0.0,M,0.0,M,,*6C
$GPGSA,A,3,01,02,03,04,05,06,07,08,09,10,11,12,1.0,1.0,1.0*30
$GPRMC,135509.873,A,5128.308,N,00536.606,E,034.0,260.6,090719,000.0,W*7B
$GPGGA,135510.873,5128.306,N,00536.591,E,1,12,1.0,0.0,M,0.0,M,,*67
$GPGSA,A,3,01,02,03,04,05,06,07,08,09,10,11,12,1.0,1.0,1.0*30
$GPRMC,135510.873,A,5128.306,N,00536.591,E,019.6,261.9,090719,000.0,W*77
$GPGGA,135511.873,5128.305,N,00536.583,E,1,12,1.0,0.0,M,0.0,M,,*66
$GPGSA,A,3,01,02,03,04,05,06,07,08,09,10,11,12,1.0,1.0,1.0*30
$GPRMC,135511.873,A,5128.305,N,00536.583,E,026.0,259.2,090719,000.0,W*7C
$GPGGA,135512.873,5128.303,N,00536.572,E,1,12,1.0,0.0,M,0.0,M,,*6D
$GPGSA,A,3,01,02,03,04,05,06,07,08,09,10,11,12,1.0,1.0,1.0*30
$GPRMC,135512.873,A,5128.303,N,00536.572,E,031.5,258.5,090719,000.0,W*72
$GPGGA,135513.873,5128.300,N,00536.558,E,1,12,1.0,0.0,M,0.0,M,,*67
$GPGSA,A,3,01,02,03,04,05,06,07,08,09,10,11,12,1.0,1.0,1.0*30
$GPRMC,135513.873,A,5128.300,N,00536.558,E,033.7,258.9,090719,000.0,W*74
$GPGGA,135514.873,5128.297,N,00536.544,E,1,12,1.0,0.0,M,0.0,M,,*62
$GPGSA,A,3,01,02,03,04,05,06,07,08,09,10,11,12,1.0,1.0,1.0*30
$GPRMC,135514.873,A,5128.297,N,00536.544,E,037.1,258.8,090719,000.0,W*72
$GPGGA,135515.873,5128.294,N,00536.528,E,1,12,1.0,0.0,M,0.0,M,,*6A
$GPGSA,A,3,01,02,03,04,05,06,07,08,09,10,11,12,1.0,1.0,1.0*30
$GPRMC,135515.873,A,5128.294,N,00536.528,E,031.1,260.2,090719,000.0,W*7D
$GPGGA,135516.873,5128.292,N,00536.515,E,1,12,1.0,0.0,M,0.0,M,,*61
$GPGSA,A,3,01,02,03,04,05,06,07,08,09,10,11,12,1.0,1.0,1.0*30
$GPRMC,135516.873,A,5128.292,N,00536.515,E,046.0,259.3,090719,000.0,W*7C
$GPGGA,135517.873,5128.288,N,00536.495,E,1,12,1.0,0.0,M,0.0,M,,*62
$GPGSA,A,3,01,02,03,04,05,06,07,08,09,10,11,12,1.0,1.0,1.0*30
$GPRMC,135517.873,A,5128.288,N,00536.495,E,040.3,258.3,090719,000.0,W*7B
$GPGGA,135518.873,5128.284,N,00536.478,E,1,12,1.0,0.0,M,0.0,M,,*62
$GPGSA,A,3,01,02,03,04,05,06,07,08,09,10,11,12,1.0,1.0,1.0*30
$GPRMC,135518.873,A,5128.284,N,00536.478,E,042.5,259.6,090719,000.0,W*7B
$GPGGA,135519.873,5128.281,N,00536.460,E,1,12,1.0,0.0,M,0.0,M,,*6F
$GPGSA,A,3,01,02,03,04,05,06,07,08,09,10,11,12,1.0,1.0,1.0*30
$GPRMC,135519.873,A,5128.281,N,00536.460,E,052.3,257.9,090719,000.0,W*70
$GPGGA,135520.873,5128.276,N,00536.438,E,1,12,1.0,0.0,M,0.0,M,,*60
$GPGSA,A,3,01,02,03,04,05,06,07,08,09,10,11,12,1.0,1.0,1.0*30
$GPRMC,135520.873,A,5128.276,N,00536.438,E,062.5,256.7,090719,000.0,W*75
$GPGGA,135521.873,5128.270,N,00536.412,E,1,12,1.0,0.0,M,0.0,M,,*6F
$GPGSA,A,3,01,02,03,04,05,06,07,08,09,10,11,12,1.0,1.0,1.0*30
$GPRMC,135521.873,A,5128.270,N,00536.412,E,062.5,256.7,090719,000.0,W*7A
